{
"type": "FeatureCollection",
"features": [
{ "type": "Feature", "properties": { "location": "榮富公園", "district": "士林區", "address": "臺北市北投區榮華三路與磺溪旁" }, "geometry": { "type": "Point", "coordinates": [ 121.5230436, 25.113903 ] } },
{ "type": "Feature", "properties": { "location": "和平青草園公園", "district": "士林區", "address": "臺北市萬華區艋舺大道與西園路2段交叉口" }, "geometry": { "type": "Point", "coordinates": [ 121.4987907, 25.0347287 ] } },
{ "type": "Feature", "properties": { "location": "道南河濱公園", "district": "士林區", "address": "臺北市文山區景美恆光橋下游右側" }, "geometry": { "type": "Point", "coordinates": [ 121.5673882, 24.9811074 ] } },
{ "type": "Feature", "properties": { "location": "山水綠生態公園", "district": "士林區", "address": "臺北市南港區南深路37號" }, "geometry": { "type": "Point", "coordinates": [ 121.6215243, 25.0294287 ] } },
{ "type": "Feature", "properties": { "location": "建成公園", "district": "士林區", "address": "臺北市大同區承德路2段35號旁" }, "geometry": { "type": "Point", "coordinates": [ 121.518513, 25.0548187 ] } },
{ "type": "Feature", "properties": { "location": "潭美國小", "district": "士林區", "address": "臺北市內湖區行善路179號" }, "geometry": { "type": "Point", "coordinates": [ 121.5809783, 25.058177 ] } },
{ "type": "Feature", "properties": { "location": "古亭國小", "district": "士林區", "address": "臺北市大安區羅斯福路3段201號" }, "geometry": { "type": "Point", "coordinates": [ 121.5289138, 25.0207484 ] } },
{ "type": "Feature", "properties": { "location": "文林國小", "district": "士林區", "address": "臺北市北投區文林北路155號" }, "geometry": { "type": "Point", "coordinates": [ 121.5147513, 25.1059122 ] } },
{ "type": "Feature", "properties": { "location": "榮華公園", "district": "士林區", "address": "臺北市北投區明德路150巷" }, "geometry": { "type": "Point", "coordinates": [ 121.5215499, 25.1101418 ] } },
{ "type": "Feature", "properties": { "location": "石潭公園", "district": "士林區", "address": "臺北市內湖區成功路2段東側" }, "geometry": { "type": "Point", "coordinates": [ 121.5907875, 25.0684735 ] } },
{ "type": "Feature", "properties": { "location": "萬芳4號公園", "district": "士林區", "address": "臺北市文山區萬和街1號對面" }, "geometry": { "type": "Point", "coordinates": [ 121.5674415, 25.0009226 ] } },
{ "type": "Feature", "properties": { "location": "樂活公園", "district": "大同區", "address": "臺北市內湖區康樂街61巷15號旁" }, "geometry": { "type": "Point", "coordinates": [ 121.618434, 25.0685194 ] } },
{ "type": "Feature", "properties": { "location": "興隆公園", "district": "大同區", "address": "臺北市文山區興隆路2段154巷與仙岩路交口" }, "geometry": { "type": "Point", "coordinates": [ 121.5514917, 25.0009119 ] } },
{ "type": "Feature", "properties": { "location": "大港墘公園", "district": "大同區", "address": "臺北市內湖區瑞光路393巷旁" }, "geometry": { "type": "Point", "coordinates": [ 121.572954, 25.0774341 ] } },
{ "type": "Feature", "properties": { "location": "眷村文化公園", "district": "大同區", "address": "臺北市信義區松勤路與莊敬路交口(信義國小西側)" }, "geometry": { "type": "Point", "coordinates": [ 121.5629977, 25.0312351 ] } },
{ "type": "Feature", "properties": { "location": "景華公園", "district": "大同區", "address": "臺北市文山區景興路與景華街交口" }, "geometry": { "type": "Point", "coordinates": [ 121.544702, 24.9951376 ] } },
{ "type": "Feature", "properties": { "location": "明水公園", "district": "大同區", "address": "臺北市中山區北安路538巷1弄" }, "geometry": { "type": "Point", "coordinates": [ 121.5482362, 25.079833 ] } },
{ "type": "Feature", "properties": { "location": "三民公園", "district": "大安區", "address": "臺北市松山區三民路、撫遠街298號" }, "geometry": { "type": "Point", "coordinates": [ 121.5664628, 25.0611408 ] } },
{ "type": "Feature", "properties": { "location": "聯成公園", "district": "大安區", "address": "臺北市南港區忠孝東路6段250巷1弄" }, "geometry": { "type": "Point", "coordinates": [ 121.5882388, 25.0490236 ] } },
{ "type": "Feature", "properties": { "location": "福中公園", "district": "大安區", "address": "臺北市士林區福港街129巷及107巷交會處" }, "geometry": { "type": "Point", "coordinates": [ 121.5181397, 25.0881157 ] } },
{ "type": "Feature", "properties": { "location": "玉成公園", "district": "大安區", "address": "臺北市南港區中坡南路55號" }, "geometry": { "type": "Point", "coordinates": [ 121.5848221, 25.0427113 ] } },
{ "type": "Feature", "properties": { "location": "石牌公園", "district": "大安區", "address": "臺北市北投區石牌路1段39巷內" }, "geometry": { "type": "Point", "coordinates": [ 121.4688831, 25.119971 ] } },
{ "type": "Feature", "properties": { "location": "立農公園", "district": "大安區", "address": "臺北市北投區承德路7段與吉利街口" }, "geometry": { "type": "Point", "coordinates": [ 121.5034314, 25.1178536 ] } },
{ "type": "Feature", "properties": { "location": "四分綠地", "district": "大安區", "address": "臺北市南港區研究院路2段182巷58弄旁" }, "geometry": { "type": "Point", "coordinates": [ 121.6150369, 25.0368245 ] } },
{ "type": "Feature", "properties": { "location": "磺港公園", "district": "大安區", "address": "臺北市北投區磺港路與大興街交叉口" }, "geometry": { "type": "Point", "coordinates": [ 121.5036823, 25.1308949 ] } },
{ "type": "Feature", "properties": { "location": "永盛公園", "district": "中山區", "address": "臺北市中山區中山北路2段93巷26、40號間" }, "geometry": { "type": "Point", "coordinates": [ 121.5243826, 25.0592579 ] } },
{ "type": "Feature", "properties": { "location": "大佳河濱公園", "district": "中山區", "address": "臺北市中山區濱江街" }, "geometry": { "type": "Point", "coordinates": [ 121.5459682, 25.0723426 ] } },
{ "type": "Feature", "properties": { "location": "中安公園", "district": "中山區", "address": "臺北市中山區中山北路2段65巷2弄內" }, "geometry": { "type": "Point", "coordinates": [ 121.5246126, 25.0566757 ] } },
{ "type": "Feature", "properties": { "location": "樹德公園", "district": "中山區", "address": "臺北市大同區大龍街129號" }, "geometry": { "type": "Point", "coordinates": [ 121.516036, 25.0671927 ] } },
{ "type": "Feature", "properties": { "location": "景化公園", "district": "中山區", "address": "臺北市大同區伊寧街9巷(景化街巷弄中)" }, "geometry": { "type": "Point", "coordinates": [ 121.51303, 25.0651641 ] } },
{ "type": "Feature", "properties": { "location": "朝陽公園", "district": "中山區", "address": "臺北市大同區重慶北路2段64巷口" }, "geometry": { "type": "Point", "coordinates": [ 121.5132976, 25.0557935 ] } },
{ "type": "Feature", "properties": { "location": "大安國小", "district": "中山區", "address": "臺北市大安區臥龍街129號" }, "geometry": { "type": "Point", "coordinates": [ 121.5504269, 25.0189218 ] } },
{ "type": "Feature", "properties": { "location": "和平實驗小學", "district": "中山區", "address": "臺北市大安區敦南街76巷28號" }, "geometry": { "type": "Point", "coordinates": [ 121.545334, 25.0213949 ] } },
{ "type": "Feature", "properties": { "location": "建安國小", "district": "中山區", "address": "臺北市大安區大安路2段99號" }, "geometry": { "type": "Point", "coordinates": [ 121.5461699, 25.0293539 ] } },
{ "type": "Feature", "properties": { "location": "花博公園美術園區", "district": "中正區", "address": "臺北市中山區中山北路以東民族東路以北(原民族公園)" }, "geometry": { "type": "Point", "coordinates": [ 121.5275988, 25.0706543 ] } },
{ "type": "Feature", "properties": { "location": "象山公園", "district": "中正區", "address": "臺北市信義區信義路5段150巷旁" }, "geometry": { "type": "Point", "coordinates": [ 121.5704181, 25.0258465 ] } },
{ "type": "Feature", "properties": { "location": "士林4號廣場", "district": "中正區", "address": "臺北市士林區福林路與雨農路交叉口" }, "geometry": { "type": "Point", "coordinates": [ 121.5321796, 25.0966036 ] } },
{ "type": "Feature", "properties": { "location": "榮星公園", "district": "內湖區", "address": "臺北市中山區民權東路與建國北路交叉口" }, "geometry": { "type": "Point", "coordinates": [ 121.5368345, 25.0648778 ] } },
{ "type": "Feature", "properties": { "location": "碧湖公園", "district": "內湖區", "address": "臺北市內湖區內湖路2段175號(國立臺灣戲曲學院旁)" }, "geometry": { "type": "Point", "coordinates": [ 121.582954, 25.0827402 ] } },
{ "type": "Feature", "properties": { "location": "中研公園", "district": "內湖區", "address": "臺北市南港區研究路2段12巷58弄" }, "geometry": { "type": "Point", "coordinates": [ 121.6111949, 25.0312347 ] } },
{ "type": "Feature", "properties": { "location": "兒童新樂園(機械式)", "district": "內湖區", "address": "臺北市士林區承德路5段55號" }, "geometry": { "type": "Point", "coordinates": [ 121.515366, 25.0981175 ] } },
{ "type": "Feature", "properties": { "location": "兒童新樂園(非機械式)", "district": "內湖區", "address": "臺北市士林區承德路5段55號" }, "geometry": { "type": "Point", "coordinates": [ 121.515366, 25.0981175 ] } },
{ "type": "Feature", "properties": { "location": "?公圳公園", "district": "內湖區", "address": "臺北市大安區安東街40巷" }, "geometry": { "type": "Point", "coordinates": [ 121.5410284, 25.0441247 ] } },
{ "type": "Feature", "properties": { "location": "松德公園", "district": "文山區", "address": "臺北市信義區松德路180巷8之1號對面" }, "geometry": { "type": "Point", "coordinates": [ 121.5732119, 25.0357169 ] } },
{ "type": "Feature", "properties": { "location": "東陽公園", "district": "文山區", "address": "臺北市南港區重陽路187巷" }, "geometry": { "type": "Point", "coordinates": [ 121.5987317, 25.0571905 ] } },
{ "type": "Feature", "properties": { "location": "三重世貿公園", "district": "文山區", "address": "臺北市南港區經貿二路106巷" }, "geometry": { "type": "Point", "coordinates": [ 121.6154382, 25.0581903 ] } },
{ "type": "Feature", "properties": { "location": "日新國小", "district": "文山區", "address": "臺北市大同區太原路151號" }, "geometry": { "type": "Point", "coordinates": [ 121.5164603, 25.0543695 ] } },
{ "type": "Feature", "properties": { "location": "天母夢想樂園", "district": "文山區", "address": "臺北市士林區忠誠路2段" }, "geometry": { "type": "Point", "coordinates": [ 121.5319734, 25.1135714 ] } },
{ "type": "Feature", "properties": { "location": "大佳河濱公園(第3期)", "district": "文山區", "address": "臺北市中山區濱江街" }, "geometry": { "type": "Point", "coordinates": [ 121.5459682, 25.0723426 ] } },
{ "type": "Feature", "properties": { "location": "萬慶公園", "district": "文山區", "address": "臺北市文山區育英街45巷旁" }, "geometry": { "type": "Point", "coordinates": [ 121.5381073, 24.9914771 ] } },
{ "type": "Feature", "properties": { "location": "新新公園", "district": "文山區", "address": "臺北市南港路3段47巷26號" }, "geometry": { "type": "Point", "coordinates": [ 121.5903442, 25.0527586 ] } },
{ "type": "Feature", "properties": { "location": "興隆國小", "district": "北投區", "address": "臺北市文山區福興路2號" }, "geometry": { "type": "Point", "coordinates": [ 121.5519368, 25.0024871 ] } },
{ "type": "Feature", "properties": { "location": "華中河濱公園", "district": "北投區", "address": "臺北市萬華區環河南路3段與武成街63巷交叉口附近" }, "geometry": { "type": "Point", "coordinates": [ 121.4920737, 25.0217338 ] } },
{ "type": "Feature", "properties": { "location": "南港公園", "district": "北投區", "address": "臺北市南港區東新街170之1號" }, "geometry": { "type": "Point", "coordinates": [ 121.5921979, 25.0442784 ] } },
{ "type": "Feature", "properties": { "location": "前港公園", "district": "北投區", "address": "臺北市士林區前港街134巷旁" }, "geometry": { "type": "Point", "coordinates": [ 121.517772, 25.0851869 ] } },
{ "type": "Feature", "properties": { "location": "中央藝文公園", "district": "北投區", "address": "臺北市中正區北平東路30號前" }, "geometry": { "type": "Point", "coordinates": [ 121.52586, 25.0456746 ] } },
{ "type": "Feature", "properties": { "location": "大佳河濱公園(第2期)", "district": "北投區", "address": "臺北市中山區濱江街" }, "geometry": { "type": "Point", "coordinates": [ 121.5459682, 25.0723426 ] } },
{ "type": "Feature", "properties": { "location": "臺北市立臺北特殊教育學校", "district": "北投區", "address": "臺北市士林區忠誠路2段207巷3號" }, "geometry": { "type": "Point", "coordinates": [ 121.5363453, 25.1172091 ] } },
{ "type": "Feature", "properties": { "location": "芝山國小", "district": "北投區", "address": "臺北市士林區德行東路285號" }, "geometry": { "type": "Point", "coordinates": [ 121.536354, 25.1102978 ] } },
{ "type": "Feature", "properties": { "location": "齊東公園", "district": "北投區", "address": "臺北市中正區齊東街53巷巷口" }, "geometry": { "type": "Point", "coordinates": [ 121.528829, 25.0415045 ] } },
{ "type": "Feature", "properties": { "location": "連雲公園", "district": "北投區", "address": "臺北市中正區連雲街37巷與新生南路一段146巷交口" }, "geometry": { "type": "Point", "coordinates": [ 121.5315767, 25.0352977 ] } },
{ "type": "Feature", "properties": { "location": "辛亥生態公園", "district": "北投區", "address": "臺北市辛亥路4段186號對面" }, "geometry": { "type": "Point", "coordinates": [ 121.5559856, 25.0032452 ] } },
{ "type": "Feature", "properties": { "location": "老松國小", "district": "北投區", "address": "臺北市萬華區桂林路64號" }, "geometry": { "type": "Point", "coordinates": [ 121.5026577, 25.0374717 ] } },
{ "type": "Feature", "properties": { "location": "湖山6號公園", "district": "北投區", "address": "臺北市內湖區大湖街166巷大湖派出所後方" }, "geometry": { "type": "Point", "coordinates": [ 121.6013214, 25.0840919 ] } },
{ "type": "Feature", "properties": { "location": "知行公園", "district": "松山區", "address": "臺北市北投區知行路255巷" }, "geometry": { "type": "Point", "coordinates": [ 121.4671842, 25.1211474 ] } },
{ "type": "Feature", "properties": { "location": "民生公園", "district": "松山區", "address": "臺北市松山區民生東路5段36巷4弄與8弄間" }, "geometry": { "type": "Point", "coordinates": [ 121.5638621, 25.0541591 ] } },
{ "type": "Feature", "properties": { "location": "大安森林公園", "district": "松山區", "address": "臺北市大安區信義路3段100號" }, "geometry": { "type": "Point", "coordinates": [ 121.5362683, 25.0332692 ] } },
{ "type": "Feature", "properties": { "location": "青年公園(飛行探索遊戲場)", "district": "松山區", "address": "臺北市萬華區青年路188號對面" }, "geometry": { "type": "Point", "coordinates": [ 121.5037166, 25.0201924 ] } },
{ "type": "Feature", "properties": { "location": "天母公園", "district": "信義區", "address": "臺北市士林區中山北路7段141巷旁(天母公園內)" }, "geometry": { "type": "Point", "coordinates": [ 121.5304787, 25.1257572 ] } },
{ "type": "Feature", "properties": { "location": "美崙公園", "district": "信義區", "address": "臺北市士林區美崙街152巷(美崙公園內)" }, "geometry": { "type": "Point", "coordinates": [ 121.5173836, 25.0972582 ] } },
{ "type": "Feature", "properties": { "location": "福星公園(公1公園)", "district": "信義區", "address": "臺北市北投區承德路6段與文林北路交叉口" }, "geometry": { "type": "Point", "coordinates": [ 121.5113713, 25.1104743 ] } },
{ "type": "Feature", "properties": { "location": "七虎公園", "district": "信義區", "address": "臺北市北投區育仁路108號" }, "geometry": { "type": "Point", "coordinates": [ 121.5012715, 25.1364308 ] } },
{ "type": "Feature", "properties": { "location": "福林公園", "district": "信義區", "address": "臺北市士林區中正路與福林路間(福林公園內)" }, "geometry": { "type": "Point", "coordinates": [ 121.5290357, 25.0948074 ] } },
{ "type": "Feature", "properties": { "location": "花博公園新生園區", "district": "南港區", "address": "臺北市中山區新生北路3段105號旁" }, "geometry": { "type": "Point", "coordinates": [ 121.528776, 25.070256 ] } },
{ "type": "Feature", "properties": { "location": "洲美公園", "district": "南港區", "address": "臺北市北投區福美路199號旁(北臨福美路、南臨洲美街、東臨計畫道路範圍內)" }, "geometry": { "type": "Point", "coordinates": [ 121.5055322, 25.1001506 ] } },
{ "type": "Feature", "properties": { "location": "敦化公園", "district": "南港區", "address": "臺北市松山區八德路3段12巷52弄2之1號邊" }, "geometry": { "type": "Point", "coordinates": [ 121.5502242, 25.0463321 ] } },
{ "type": "Feature", "properties": { "location": "慶城公園", "district": "南港區", "address": "臺北市松山區慶城街16巷、南京東路3段303巷" }, "geometry": { "type": "Point", "coordinates": [ 121.544009, 25.0520785 ] } },
{ "type": "Feature", "properties": { "location": "景美國小", "district": "南港區", "address": "臺北市文山區景文街108號" }, "geometry": { "type": "Point", "coordinates": [ 121.5398994, 24.9896433 ] } },
{ "type": "Feature", "properties": { "location": "三興國小", "district": "南港區", "address": "臺北市信義區基隆路2段99號" }, "geometry": { "type": "Point", "coordinates": [ 121.5582738, 25.0294154 ] } },
{ "type": "Feature", "properties": { "location": "長安公園", "district": "南港區", "address": "臺北市北投區育仁路(薇閣國小旁)" }, "geometry": { "type": "Point", "coordinates": [ 121.5008795, 25.1360521 ] } },
{ "type": "Feature", "properties": { "location": "錦德公園", "district": "南港區", "address": "臺北市萬華區德昌街與西園路2段281巷交叉口" }, "geometry": { "type": "Point", "coordinates": [ 121.4943799, 25.0277299 ] } },
{ "type": "Feature", "properties": { "location": "奇岩1號公園", "district": "南港區", "address": "臺北市北投區三合街一段及磺港路旁" }, "geometry": { "type": "Point", "coordinates": [ 121.5057565, 25.1270381 ] } },
{ "type": "Feature", "properties": { "location": "玉泉公園", "district": "萬華區", "address": "臺北市大同區西寧北路28號(溫水游泳池外)" }, "geometry": { "type": "Point", "coordinates": [ 121.5074685, 25.050111 ] } },
{ "type": "Feature", "properties": { "location": "錦安公園", "district": "萬華區", "address": "臺北市大安區金山南路2段203巷及麗水街口" }, "geometry": { "type": "Point", "coordinates": [ 121.5269724, 25.0279579 ] } },
{ "type": "Feature", "properties": { "location": "和安公園", "district": "萬華區", "address": "臺北市大安區復興南路1段313巷" }, "geometry": { "type": "Point", "coordinates": [ 121.5433783, 25.0249441 ] } },
{ "type": "Feature", "properties": { "location": "北投25號線形公園", "district": "萬華區", "address": "臺北市北投區北投路一段20號旁-西安橋下" }, "geometry": { "type": "Point", "coordinates": [ 121.515018, 25.1151759 ] } },
{ "type": "Feature", "properties": { "location": "五分埔公園", "district": "萬華區", "address": "臺北市信義區中坡北路、松隆路口(松山車站前)" }, "geometry": { "type": "Point", "coordinates": [ 121.5807107, 25.0472818 ] } }
]
}
