{
"type": "FeatureCollection",
"features": [
{ "type": "Feature", "properties": { "district": "中正區", "name": "臺北市私立小哈利托嬰中心", "address": "臺北市中正區南昌路1段145號2樓", "Approvedcollect": 32, "RealCollect": 32, "grade": "甲" }, "geometry": { "type": "Point", "coordinates": [ 121.5168, 25.03194 ] } },
{ "type": "Feature", "properties": { "district": "中正區", "name": "臺北市私立宥緣托嬰中心", "address": "臺北市中正區杭州南路1段131巷5號2樓", "Approvedcollect": 30, "RealCollect": 27, "grade": "乙" }, "geometry": { "type": "Point", "coordinates": [ 121.5163235, 25.02861 ] } },
{ "type": "Feature", "properties": { "district": "中正區", "name": "臺北市私立宥宜托嬰中心", "address": "臺北市中正區杭州南路1段131巷3號2樓", "Approvedcollect": 30, "RealCollect": 28, "grade": "乙" }, "geometry": { "type": "Point", "coordinates": [ 121.5163235, 25.02861 ] } },
{ "type": "Feature", "properties": { "district": "中正區", "name": "立法院附設臺北市私立員工子女托嬰中心(委託社團法人新北市嬰幼兒托育協會經營管理)", "address": "臺北市中正區青島東路1-3號1樓", "Approvedcollect": 45, "RealCollect": 45, "grade": "優" }, "geometry": { "type": "Point", "coordinates": [ 121.5211148, 25.044218 ] } },
{ "type": "Feature", "properties": { "district": "中正區", "name": "臺北市私立小天心東門托嬰中心", "address": "臺北市中正區新生南路1段170巷14之11號1樓", "Approvedcollect": 27, "RealCollect": 27, "grade": "優" }, "geometry": { "type": "Point", "coordinates": [ 121.53242, 25.0343354 ] } },
{ "type": "Feature", "properties": { "district": "中正區", "name": "臺北市私立小天心晴晴托嬰中心", "address": "臺北市中正區師大路176號1樓", "Approvedcollect": 33, "RealCollect": 33, "grade": "甲" }, "geometry": { "type": "Point", "coordinates": [ 121.5250945, 25.0211842 ] } },
{ "type": "Feature", "properties": { "district": "中正區", "name": "臺北市私立萌芽托嬰中心", "address": "臺北市中正區廈門街10號1樓", "Approvedcollect": 20, "RealCollect": 20, "grade": "乙" }, "geometry": { "type": "Point", "coordinates": [ 121.5177664, 25.026438 ] } },
{ "type": "Feature", "properties": { "district": "中正區", "name": "臺北市私立樂寶托嬰中心", "address": "臺北市中正區林森南路101號及101號之一1樓", "Approvedcollect": 35, "RealCollect": 18, "grade": "N" }, "geometry": { "type": "Point", "coordinates": [ 121.5214702, 25.0378428 ] } },
{ "type": "Feature", "properties": { "district": "中正區", "name": "臺北市私立小天心壹壹托嬰中心", "address": "臺北市中正區晉江街115號", "Approvedcollect": 34, "RealCollect": 12, "grade": "N" }, "geometry": { "type": "Point", "coordinates": [ 121.5244412, 25.0231555 ] } },
{ "type": "Feature", "properties": { "district": "中正區", "name": "臺北市政府社會局委託社團法人台北市幼兒園協會辦理臺北市中正托嬰中心", "address": "臺北市中正區詔安街29號1樓(螢橋國小新大樓)", "Approvedcollect": 40, "RealCollect": 40, "grade": "優" }, "geometry": { "type": "Point", "coordinates": [ 121.5143526, 25.0251379 ] } },
{ "type": "Feature", "properties": { "district": "中正區", "name": "臺北市政府社會局委託社團法人新北市國際兒童教育協會辦理臺北市新生托嬰中心", "address": "臺北市中正區新生南路1段54巷5弄2號1、2樓", "Approvedcollect": 35, "RealCollect": 35, "grade": "甲" }, "geometry": { "type": "Point", "coordinates": [ 121.5325221, 25.0412244 ] } },
{ "type": "Feature", "properties": { "district": "中正區", "name": "臺北市政府社會局委託社團法人新北市春陽關懷協會經營管理臺北市南海社區公共托育家園", "address": "臺北市中正區延平南路207之1號1樓", "Approvedcollect": 12, "RealCollect": 12, "grade": "甲" }, "geometry": { "type": "Point", "coordinates": [ 121.5073394, 25.0328854 ] } },
{ "type": "Feature", "properties": { "district": "大同區", "name": "臺北市私立詠荺托嬰中心", "address": "臺北市大同區重慶北路3段24號2樓", "Approvedcollect": 20, "RealCollect": 20, "grade": "乙" }, "geometry": { "type": "Point", "coordinates": [ 121.5134472, 25.0650433 ] } },
{ "type": "Feature", "properties": { "district": "大同區", "name": "臺北市私立海王子托嬰中心", "address": "臺北市大同區延平北路2段278號3樓、3樓之3", "Approvedcollect": 40, "RealCollect": 32, "grade": "甲" }, "geometry": { "type": "Point", "coordinates": [ 121.5111302, 25.0623103 ] } },
{ "type": "Feature", "properties": { "district": "大同區", "name": "臺北市私立喜樂大同托嬰中心", "address": "臺北市大同區重慶北路3段252巷2號2樓", "Approvedcollect": 22, "RealCollect": 22, "grade": "乙" }, "geometry": { "type": "Point", "coordinates": [ 121.513353, 25.071167 ] } },
{ "type": "Feature", "properties": { "district": "大同區", "name": "臺北市私立小育龍延平托嬰中心", "address": "臺北市大同區延平北路2段242號2樓之1", "Approvedcollect": 39, "RealCollect": 39, "grade": "N" }, "geometry": { "type": "Point", "coordinates": [ 121.511286, 25.059994 ] } },
{ "type": "Feature", "properties": { "district": "大同區", "name": "臺北市政府社會局委託社團法人吾幼吾家教保協會辦理臺北市大同托嬰中心", "address": "臺北市大同區重慶北路3段120巷2號3樓", "Approvedcollect": 45, "RealCollect": 45, "grade": "優" }, "geometry": { "type": "Point", "coordinates": [ 121.5133075, 25.0671628 ] } },
{ "type": "Feature", "properties": { "district": "大同區", "name": "臺北市政府社會局委託社團法人吾幼吾家教保協會經營管理臺北市明倫托嬰中心", "address": "臺北市大同區承德路3段285之8號", "Approvedcollect": 40, "RealCollect": 40, "grade": "N" }, "geometry": { "type": "Point", "coordinates": [ 121.5200947, 25.0732147 ] } },
{ "type": "Feature", "properties": { "district": "大同區", "name": "臺北市政府社會局委託臺北市嬰幼兒托育協會經營管理臺北市大龍社區公共托育家園", "address": "臺北市大同區哈密街47號(大龍國小)", "Approvedcollect": 12, "RealCollect": 12, "grade": "優" }, "geometry": { "type": "Point", "coordinates": [ 121.5168374, 25.0738189 ] } },
{ "type": "Feature", "properties": { "district": "大同區", "name": "臺北市政府社會局委託臺北市托育發展協會經營管理臺北市忠孝社區公共托育家園", "address": "臺北市大同區西寧北路32號1樓(忠孝國中)", "Approvedcollect": 12, "RealCollect": 12, "grade": "優" }, "geometry": { "type": "Point", "coordinates": [ 121.5082165, 25.051247 ] } },
{ "type": "Feature", "properties": { "district": "大同區", "name": "臺北市政府社會局委託社團法人中華童心幸福關懷協會經營管理臺北市永樂社區公共托育家園", "address": "臺北市大同區延平北路2段266號1樓(永樂國小)", "Approvedcollect": 12, "RealCollect": 12, "grade": "甲" }, "geometry": { "type": "Point", "coordinates": [ 121.5110848, 25.061297 ] } },
{ "type": "Feature", "properties": { "district": "中山區", "name": "臺北市私立漢妮托嬰中心", "address": "臺北市中山區明水路397巷7弄9號1樓", "Approvedcollect": 20, "RealCollect": 19, "grade": "甲" }, "geometry": { "type": "Point", "coordinates": [ 121.5479766, 25.0780987 ] } },
{ "type": "Feature", "properties": { "district": "中山區", "name": "臺北市私立卡兒堡托嬰中心\n(原名稱:宜朵園蒙特梭利托嬰中心)", "address": "臺北市中山區基湖路149號1樓", "Approvedcollect": 35, "RealCollect": 30, "grade": "乙" }, "geometry": { "type": "Point", "coordinates": [ 121.5638859, 25.0780502 ] } },
{ "type": "Feature", "properties": { "district": "中山區", "name": "臺北市私立日光貝比托嬰中心", "address": "臺北市中山區中山北路2段116巷9號2樓", "Approvedcollect": 40, "RealCollect": 18, "grade": "乙" }, "geometry": { "type": "Point", "coordinates": [ 121.5220908, 25.0610839 ] } },
{ "type": "Feature", "properties": { "district": "中山區", "name": "臺北市私立笙愛托嬰中心", "address": "臺北市中山區松江路46巷9之1號2樓", "Approvedcollect": 18, "RealCollect": 18, "grade": "乙" }, "geometry": { "type": "Point", "coordinates": [ 121.532125, 25.0479912 ] } },
{ "type": "Feature", "properties": { "district": "中山區", "name": "臺北市私立韋斯登托嬰中心", "address": "臺北市中山區合江街105巷16號1樓", "Approvedcollect": 19, "RealCollect": 19, "grade": "乙" }, "geometry": { "type": "Point", "coordinates": [ 121.540015, 25.0597333 ] } },
{ "type": "Feature", "properties": { "district": "中山區", "name": "臺北市私立布萊茲托嬰中心", "address": "臺北市中山區合江街100巷11號1樓", "Approvedcollect": 21, "RealCollect": 20, "grade": "乙" }, "geometry": { "type": "Point", "coordinates": [ 121.5384055, 25.0583609 ] } },
{ "type": "Feature", "properties": { "district": "中山區", "name": "臺北市私立龍江媽咪托嬰中心", "address": "臺北市中山區龍江路397巷10號1樓", "Approvedcollect": 18, "RealCollect": 18, "grade": "乙" }, "geometry": { "type": "Point", "coordinates": [ 121.541627, 25.0654306 ] } },
{ "type": "Feature", "properties": { "district": "中山區", "name": "臺北市私立愛寶貝大直園托嬰中心", "address": "臺北市中山區明水路443號1樓", "Approvedcollect": 20, "RealCollect": 17, "grade": "甲" }, "geometry": { "type": "Point", "coordinates": [ 121.5498687, 25.0775011 ] } },
{ "type": "Feature", "properties": { "district": "中山區", "name": "臺北市私立大愛托嬰中心", "address": "臺北市中山區民生東路3段9巷5號及7號", "Approvedcollect": 40, "RealCollect": 40, "grade": "乙" }, "geometry": { "type": "Point", "coordinates": [ 121.5427093, 25.0792018 ] } },
{ "type": "Feature", "properties": { "district": "中山區", "name": "臺北市私立寶貝托嬰中心", "address": "臺北市中山區民族東路512巷23號1樓", "Approvedcollect": 20, "RealCollect": 20, "grade": "甲" }, "geometry": { "type": "Point", "coordinates": [ 121.5421313, 25.0665045 ] } },
{ "type": "Feature", "properties": { "district": "中山區", "name": "臺北市私立愛寶貝明水園托嬰中心", "address": "臺北市中山區明水路457號1樓", "Approvedcollect": 26, "RealCollect": 26, "grade": "甲" }, "geometry": { "type": "Point", "coordinates": [ 121.5507006, 25.0775199 ] } },
{ "type": "Feature", "properties": { "district": "中山區", "name": "臺北市私立健寶兒長安托嬰中心", "address": "臺北市中山區龍江路23號2樓", "Approvedcollect": 63, "RealCollect": 54, "grade": "N" }, "geometry": { "type": "Point", "coordinates": [ 121.5405612, 25.0478977 ] } },
{ "type": "Feature", "properties": { "district": "中山區", "name": "臺北市私立小庭園托嬰中心", "address": "臺北市中山區遼寧街63巷30號2樓", "Approvedcollect": 23, "RealCollect": 21, "grade": "N" }, "geometry": { "type": "Point", "coordinates": [ 121.543311, 25.0490395 ] } },
{ "type": "Feature", "properties": { "district": "中山區", "name": "臺北市私立健寶兒英琦托嬰中心", "address": "臺北市中山區龍江路40號2樓", "Approvedcollect": 38, "RealCollect": 14, "grade": "N" }, "geometry": { "type": "Point", "coordinates": [ 121.5402894, 25.0488712 ] } },
{ "type": "Feature", "properties": { "district": "中山區", "name": "臺北市私立詠欣托嬰中心", "address": "臺北市中山區建國北路2段186巷7號、9號1樓", "Approvedcollect": 39, "RealCollect": 5, "grade": "N" }, "geometry": { "type": "Point", "coordinates": [ 121.5357881, 25.0596005 ] } },
{ "type": "Feature", "properties": { "district": "中山區", "name": "台灣基督長老教會馬偕醫療財團法人馬偕紀念醫院附設臺北市私立馬偕員工子女托嬰中心", "address": "臺北市中山區中山北路2段106之2號2樓", "Approvedcollect": 34, "RealCollect": 20, "grade": "N" }, "geometry": { "type": "Point", "coordinates": [ 121.5225794, 25.0601909 ] } },
{ "type": "Feature", "properties": { "district": "中山區", "name": "臺北市政府社會局委託台北市教保人員協會辦理臺北市中山托嬰中心", "address": "臺北市中山區林森北路511號1樓(新興國中教學大樓)", "Approvedcollect": 40, "RealCollect": 40, "grade": "優" }, "geometry": { "type": "Point", "coordinates": [ 121.5263386, 25.062038 ] } },
{ "type": "Feature", "properties": { "district": "中山區", "name": "臺北市政府社會局委託台北市教保人員協會經營管理臺北市吉林社區公共托育家園", "address": "臺北市中山區長春路116號2樓(吉林國小－臺北市家庭教育中心)", "Approvedcollect": 12, "RealCollect": 12, "grade": "優" }, "geometry": { "type": "Point", "coordinates": [ 121.5292245, 25.0541638 ] } },
{ "type": "Feature", "properties": { "district": "中山區", "name": "臺北市政府社會局委託台北市教保人員協會經營管理臺北市濱中社區公共托育家園", "address": "臺北市中山區樂群二路262號1樓(濱江國中文樓)", "Approvedcollect": 12, "RealCollect": 12, "grade": "優" }, "geometry": { "type": "Point", "coordinates": [ 121.5607499, 25.07955 ] } },
{ "type": "Feature", "properties": { "district": "中山區", "name": "臺北市政府社會局委託社團法人中華婦幼健康促進發展協會經營管理臺北市北安社區公共托育家園", "address": "臺北市中山區明水路325號1樓(北安國中忠孝樓)", "Approvedcollect": 12, "RealCollect": 12, "grade": "甲" }, "geometry": { "type": "Point", "coordinates": [ 121.5415678, 25.0777783 ] } },
{ "type": "Feature", "properties": { "district": "中山區", "name": "臺北市政府社會局委託社團法人中華童心幸福關懷協會經營管理臺北市大直社區公共托育家園", "address": "臺北市中山區大直街2號1樓(大直國小自愛樓)", "Approvedcollect": 12, "RealCollect": 12, "grade": "甲" }, "geometry": { "type": "Point", "coordinates": [ 121.5464127, 25.0805261 ] } },
{ "type": "Feature", "properties": { "district": "中山區", "name": "臺北市政府社會局委託社團法人中華婦幼健康促進發展協會經營管理臺北市濱江社區公共托育家園", "address": "臺北市中山區樂群二路266巷99號1樓(濱江國小幼兒園區)", "Approvedcollect": 12, "RealCollect": 12, "grade": "甲" }, "geometry": { "type": "Point", "coordinates": [ 121.5610254, 25.0776229 ] } },
{ "type": "Feature", "properties": { "district": "松山區", "name": "臺北市私立豐村托嬰中心", "address": "臺北市松山區光復南路13巷43號1樓", "Approvedcollect": 23, "RealCollect": 22, "grade": "乙" }, "geometry": { "type": "Point", "coordinates": [ 121.559854, 25.04803 ] } },
{ "type": "Feature", "properties": { "district": "松山區", "name": "臺北市私立多多托嬰中心", "address": "臺北市松山區八德路3段12巷51弄19號1樓", "Approvedcollect": 32, "RealCollect": 32, "grade": "甲" }, "geometry": { "type": "Point", "coordinates": [ 121.5515725, 25.0462687 ] } },
{ "type": "Feature", "properties": { "district": "松山區", "name": "臺北市私立凱思托嬰中心", "address": "臺北市松山區光復北路100巷8號1樓", "Approvedcollect": 30, "RealCollect": 27, "grade": "乙" }, "geometry": { "type": "Point", "coordinates": [ 121.5571872, 25.0504424 ] } },
{ "type": "Feature", "properties": { "district": "松山區", "name": "臺北市私立哈寶寶托嬰中心", "address": "臺北市松山區民生東路5段36巷4弄41號1樓", "Approvedcollect": 20, "RealCollect": 20, "grade": "甲" }, "geometry": { "type": "Point", "coordinates": [ 121.5608832, 25.0585789 ] } },
{ "type": "Feature", "properties": { "district": "松山區", "name": "臺北市私立采禾托嬰中心", "address": "臺北市松山區八德路3段81號2樓之1", "Approvedcollect": 40, "RealCollect": 40, "grade": "甲" }, "geometry": { "type": "Point", "coordinates": [ 121.5531069, 25.0483509 ] } },
{ "type": "Feature", "properties": { "district": "松山區", "name": "臺北市私立健寶兒托嬰中心", "address": "臺北市松山區敦化北路222巷15號1樓", "Approvedcollect": 24, "RealCollect": 2, "grade": "乙" }, "geometry": { "type": "Point", "coordinates": [ 121.548307, 25.059508 ] } },
{ "type": "Feature", "properties": { "district": "松山區", "name": "臺北市私立哈寶貝托嬰中心", "address": "臺北市松山區民生東路5段39之2號1樓", "Approvedcollect": 22, "RealCollect": 22, "grade": "甲" }, "geometry": { "type": "Point", "coordinates": [ 121.5608832, 25.0585789 ] } },
{ "type": "Feature", "properties": { "district": "松山區", "name": "臺北市私立悅福托嬰中心", "address": "臺北市松山區南京東路4段95號2樓", "Approvedcollect": 36, "RealCollect": 21, "grade": "乙" }, "geometry": { "type": "Point", "coordinates": [ 121.5873832, 25.0607545 ] } },
{ "type": "Feature", "properties": { "district": "松山區", "name": "臺北市私立悅和托嬰中心", "address": "臺北市松山區南京東路4段93號2樓", "Approvedcollect": 22, "RealCollect": 14, "grade": "乙" }, "geometry": { "type": "Point", "coordinates": [ 121.5873832, 25.0607545 ] } },
{ "type": "Feature", "properties": { "district": "松山區", "name": "臺北市私立天使寶貝蒙特梭利托嬰中心", "address": "臺北市松山區敦化北路145巷71號1樓", "Approvedcollect": 26, "RealCollect": 26, "grade": "甲" }, "geometry": { "type": "Point", "coordinates": [ 121.5520973, 25.053557 ] } },
{ "type": "Feature", "properties": { "district": "松山區", "name": "臺北市私立天愛托嬰中心", "address": "臺北市松山區三民路9號2樓之5", "Approvedcollect": 32, "RealCollect": 29, "grade": "甲" }, "geometry": { "type": "Point", "coordinates": [ 121.5634823, 25.0537114 ] } },
{ "type": "Feature", "properties": { "district": "松山區", "name": "臺北市私立健寶兒敦北托嬰中心", "address": "臺北市松山區民權東路3段106巷3弄55之1號", "Approvedcollect": 30, "RealCollect": 23, "grade": "甲" }, "geometry": { "type": "Point", "coordinates": [ 121.5407915, 25.0624428 ] } },
{ "type": "Feature", "properties": { "district": "松山區", "name": "臺北市私立健寶兒吉祥托嬰中心", "address": "臺北市松山區八德路4段111號3樓", "Approvedcollect": 60, "RealCollect": 28, "grade": "N" }, "geometry": { "type": "Point", "coordinates": [ 121.5614234, 25.0487086 ] } },
{ "type": "Feature", "properties": { "district": "松山區", "name": "臺北市私立牧星托嬰中心", "address": "臺北市松山區復興北路427巷23號1樓", "Approvedcollect": 25, "RealCollect": 25, "grade": "N" }, "geometry": { "type": "Point", "coordinates": [ 121.5460805, 25.0635103 ] } },
{ "type": "Feature", "properties": { "district": "松山區", "name": "臺北市私立玥康托嬰中心", "address": "臺北市松山區民生東路80巷1弄11號1樓", "Approvedcollect": 26, "RealCollect": 8, "grade": "N" }, "geometry": { "type": "Point", "coordinates": [ 121.5446373, 25.057952 ] } },
{ "type": "Feature", "properties": { "district": "松山區", "name": "臺北市政府社會局委託經國管理暨健康學院辦理臺北市松山托嬰中心", "address": "臺北市松山區三民路5號1樓(西松國小東陽樓)", "Approvedcollect": 40, "RealCollect": 40, "grade": "優" }, "geometry": { "type": "Point", "coordinates": [ 121.5638621, 25.0541591 ] } },
{ "type": "Feature", "properties": { "district": "松山區", "name": "臺北市政府社會局委託財團法人中華民國唐氏症基金會辦理臺北市健康托嬰中心", "address": "臺北市松山區健康路323號1樓(健康公宅2區)", "Approvedcollect": 45, "RealCollect": 45, "grade": "甲" }, "geometry": { "type": "Point", "coordinates": [ 121.567042, 25.0545512 ] } },
{ "type": "Feature", "properties": { "district": "松山區", "name": "臺北市政府社會局委託台北市教保人員協會經營管理臺北市松民社區公共托育家園", "address": "臺北市松山區民生東路5段163-1號2樓", "Approvedcollect": 12, "RealCollect": 12, "grade": "優" }, "geometry": { "type": "Point", "coordinates": [ 121.535217, 25.1186569 ] } },
{ "type": "Feature", "properties": { "district": "松山區", "name": "臺北市政府社會局委託臺北市嬰幼兒托育協會經營管理臺北市松山社區公共托育家園", "address": "臺北市松山區八德路4段746號1樓(松山國小南棟)", "Approvedcollect": 12, "RealCollect": 12, "grade": "N" }, "geometry": { "type": "Point", "coordinates": [ 121.5782972, 25.0504278 ] } },
{ "type": "Feature", "properties": { "district": "大安區", "name": "臺北市私立吉事達康博喜托嬰中心", "address": "臺北市大安區敦化南路2段200巷20號1樓及22號1樓", "Approvedcollect": 40, "RealCollect": 28, "grade": "甲" }, "geometry": { "type": "Point", "coordinates": [ 121.5473828, 25.0227364 ] } },
{ "type": "Feature", "properties": { "district": "大安區", "name": "臺北市私立萌語托嬰中心", "address": "臺北市大安區安和路2段70號2樓之5", "Approvedcollect": 28, "RealCollect": 28, "grade": "優" }, "geometry": { "type": "Point", "coordinates": [ 121.5517038, 25.0303208 ] } },
{ "type": "Feature", "properties": { "district": "大安區", "name": "臺北市私立小天心托嬰中心", "address": "臺北市大安區師大路86巷4號1樓", "Approvedcollect": 33, "RealCollect": 33, "grade": "甲" }, "geometry": { "type": "Point", "coordinates": [ 121.5279006, 25.0228725 ] } },
{ "type": "Feature", "properties": { "district": "大安區", "name": "臺北市私立以愛托嬰中心", "address": "臺北市大安區和平東路1段183巷3弄2之1號1樓", "Approvedcollect": 28, "RealCollect": 19, "grade": "甲" }, "geometry": { "type": "Point", "coordinates": [ 121.4427306, 24.9746388 ] } },
{ "type": "Feature", "properties": { "district": "大安區", "name": "臺北市私立橘子樹寶貝托嬰中心", "address": "臺北市大安區瑞安街155巷2號1樓", "Approvedcollect": 35, "RealCollect": 35, "grade": "乙" }, "geometry": { "type": "Point", "coordinates": [ 121.5393171, 25.0259577 ] } },
{ "type": "Feature", "properties": { "district": "大安區", "name": "臺北市私立采侑托嬰中心", "address": "臺北市大安區羅斯福路3段333巷9號2樓及11號2樓", "Approvedcollect": 40, "RealCollect": 28, "grade": "甲" }, "geometry": { "type": "Point", "coordinates": [ 121.5327977, 25.017563 ] } },
{ "type": "Feature", "properties": { "district": "大安區", "name": "臺北市私立翻轉學堂托嬰中心", "address": "臺北市大安區四維路160巷14號1樓", "Approvedcollect": 25, "RealCollect": 25, "grade": "甲" }, "geometry": { "type": "Point", "coordinates": [ 121.5471601, 25.0286581 ] } },
{ "type": "Feature", "properties": { "district": "大安區", "name": "臺北市私立天心大安托嬰中心", "address": "臺北市大安區新生南路3段86巷23、25號1樓", "Approvedcollect": 39, "RealCollect": 39, "grade": "甲" }, "geometry": { "type": "Point", "coordinates": [ 121.5319829, 25.018814 ] } },
{ "type": "Feature", "properties": { "district": "大安區", "name": "臺北市私立萌語大安托嬰中心", "address": "臺北市大安區安和路1段112巷22號", "Approvedcollect": 40, "RealCollect": 39, "grade": "甲" }, "geometry": { "type": "Point", "coordinates": [ 121.5521903, 25.0329786 ] } },
{ "type": "Feature", "properties": { "district": "大安區", "name": "臺北市私立小樹蒙特梭利托嬰中心", "address": "臺北市大安區樂業街188號1樓", "Approvedcollect": 24, "RealCollect": 24, "grade": "N" }, "geometry": { "type": "Point", "coordinates": [ 121.5541771, 25.0189227 ] } },
{ "type": "Feature", "properties": { "district": "大安區", "name": "臺北市私立廣蕎托嬰中心", "address": "臺北市大安區通化街176巷8號2樓", "Approvedcollect": 25, "RealCollect": 25, "grade": "N" }, "geometry": { "type": "Point", "coordinates": [ 121.5527866, 25.0277506 ] } },
{ "type": "Feature", "properties": { "district": "大安區", "name": "臺北市政府社會局委託社團法人新北市國際兒童教育協會辦理臺北市大安托嬰中心", "address": "臺北市大安區羅斯福路4段21號1樓(臺北市銘傳國小向陽樓)", "Approvedcollect": 40, "RealCollect": 40, "grade": "優" }, "geometry": { "type": "Point", "coordinates": [ 121.5354217, 25.0140674 ] } },
{ "type": "Feature", "properties": { "district": "大安區", "name": "臺北市政府社會局委託台北市兒童托育協會經營管理臺北市成功社區公共托育家園", "address": "臺北市大安區四維路198巷38弄10號(大安區成功國宅警察局駐點廳舍)", "Approvedcollect": 12, "RealCollect": 12, "grade": "優" }, "geometry": { "type": "Point", "coordinates": [ 121.5473349, 25.0266775 ] } },
{ "type": "Feature", "properties": { "district": "大安區", "name": "臺北市政府社會局委託社團法人中華婦幼健康促進發展協會經營管理臺北市大安社區公共托育家園", "address": "臺北市大安區臥龍街129號2樓(大安國小活動中心)", "Approvedcollect": 12, "RealCollect": 12, "grade": "甲" }, "geometry": { "type": "Point", "coordinates": [ 121.5497544, 25.0194828 ] } },
{ "type": "Feature", "properties": { "district": "大安區", "name": "臺北市政府社會局委託台北市教保人員協會經營管理臺北市族中社區公共托育家園", "address": "臺北市大安區羅斯福路4段113巷13號1樓(民族國中後棟)", "Approvedcollect": 12, "RealCollect": 12, "grade": "優" }, "geometry": { "type": "Point", "coordinates": [ 121.5388404, 25.0111994 ] } },
{ "type": "Feature", "properties": { "district": "大安區", "name": "臺北市政府社會局委託財團法人海棠文教基金會經營管理臺北市懷中社區公共托育家園", "address": "臺北市大安區忠孝東路3段248巷30號1樓(懷生國中懷生樓)", "Approvedcollect": 12, "RealCollect": 12, "grade": "甲" }, "geometry": { "type": "Point", "coordinates": [ 121.5411475, 25.0403808 ] } },
{ "type": "Feature", "properties": { "district": "萬華區", "name": "臺北市私立小育龍托嬰中心", "address": "臺北市萬華區萬大路61號2樓", "Approvedcollect": 21, "RealCollect": 20, "grade": "甲" }, "geometry": { "type": "Point", "coordinates": [ 121.5007244, 25.0309977 ] } },
{ "type": "Feature", "properties": { "district": "萬華區", "name": "臺北市私立安馨托嬰中心", "address": "臺北市萬華區中華路2段364巷5號1樓", "Approvedcollect": 22, "RealCollect": 22, "grade": "甲" }, "geometry": { "type": "Point", "coordinates": [ 121.5043392, 25.0287134 ] } },
{ "type": "Feature", "properties": { "district": "萬華區", "name": "臺北市私立小育龍莒光托嬰中心", "address": "臺北市萬華區莒光路175號2樓", "Approvedcollect": 19, "RealCollect": 19, "grade": "甲" }, "geometry": { "type": "Point", "coordinates": [ 121.5025362, 25.0311044 ] } },
{ "type": "Feature", "properties": { "district": "萬華區", "name": "臺北市私立瑞吉歐托嬰中心", "address": "臺北市萬華區中華路2段364巷17號1樓", "Approvedcollect": 20, "RealCollect": 20, "grade": "甲" }, "geometry": { "type": "Point", "coordinates": [ 121.5036888, 25.028243 ] } },
{ "type": "Feature", "properties": { "district": "萬華區", "name": "臺北市私立安馨寶貝托嬰中心", "address": "臺北市萬華區中華路2段364巷13號1樓", "Approvedcollect": 28, "RealCollect": 28, "grade": "甲" }, "geometry": { "type": "Point", "coordinates": [ 121.5041363, 25.028225 ] } },
{ "type": "Feature", "properties": { "district": "萬華區", "name": "臺北市私立小時候托嬰中心", "address": "臺北市萬華區萬大路423巷46號1樓", "Approvedcollect": 24, "RealCollect": 24, "grade": "N" }, "geometry": { "type": "Point", "coordinates": [ 121.5012493, 25.02156 ] } },
{ "type": "Feature", "properties": { "district": "萬華區", "name": "臺北市政府社會局委託社團法人臺北市嬰幼兒適性發展協會辦理臺北市萬華托嬰中心", "address": "臺北市萬華區成都路98號1樓(西門國小和平樓)", "Approvedcollect": 40, "RealCollect": 40, "grade": "優" }, "geometry": { "type": "Point", "coordinates": [ 121.4970294, 25.0262857 ] } },
{ "type": "Feature", "properties": { "district": "萬華區", "name": "臺北市政府社會局委託社團法人新北市春陽關懷協會經營管理臺北市萬大托嬰中心", "address": "臺北市萬華區西藏路201號2樓(萬華國中勵學樓2樓)", "Approvedcollect": 45, "RealCollect": 45, "grade": "優" }, "geometry": { "type": "Point", "coordinates": [ 121.4970294, 25.0262857 ] } },
{ "type": "Feature", "properties": { "district": "萬華區", "name": "臺北市政府社會局委託中華民國蒙特梭利教師協會經營管理臺北市雙園社區公共托育家園", "address": "臺北市萬華區興義街2號1樓(雙園國中D棟)", "Approvedcollect": 12, "RealCollect": 12, "grade": "甲" }, "geometry": { "type": "Point", "coordinates": [ 121.4920072, 25.0276017 ] } },
{ "type": "Feature", "properties": { "district": "萬華區", "name": "臺北市政府社會局委託社團法人新北市中華國際嬰幼兒發展學會經營管理臺北市日善社區公共托育家園", "address": "臺北市萬華區東園街19-1號1樓", "Approvedcollect": 12, "RealCollect": 12, "grade": "乙" }, "geometry": { "type": "Point", "coordinates": [ 121.4957273, 25.0279247 ] } },
{ "type": "Feature", "properties": { "district": "萬華區", "name": "臺北市政府社會局委託社團法人新北市春陽關懷協會經營管理臺北市龍山社區公共托育家園", "address": "臺北市萬華區和平西路3段235號3樓(龍山國小仁愛樓)", "Approvedcollect": 12, "RealCollect": 12, "grade": "甲" }, "geometry": { "type": "Point", "coordinates": [ 121.4961552, 25.0356648 ] } },
{ "type": "Feature", "properties": { "district": "萬華區", "name": "臺北市政府社會局委託社團法人新北市中華國際嬰幼兒發展學會經營管理臺北市東園社區公共托育家園", "address": "臺北市萬華區東園街195號1樓(東園國小內)", "Approvedcollect": 12, "RealCollect": 12, "grade": "優" }, "geometry": { "type": "Point", "coordinates": [ 121.497962, 25.022978 ] } },
{ "type": "Feature", "properties": { "district": "萬華區", "name": "臺北市政府社會局委託社團法人新北市中華國際嬰幼兒發展學會經營管理臺北市西園社區公共托育家園", "address": "臺北市萬華區東園街73巷65號2樓(西園國小內)", "Approvedcollect": 12, "RealCollect": 12, "grade": "甲" }, "geometry": { "type": "Point", "coordinates": [ 121.4983379, 25.0267763 ] } },
{ "type": "Feature", "properties": { "district": "萬華區", "name": "臺北市政府社會局委託社團法人中華兆陽文教發展協會經營管理臺北市亭中社區公共托育家園", "address": "臺北市萬華區中華路2段606巷3號2樓(古亭國中第二校區)", "Approvedcollect": 12, "RealCollect": 12, "grade": "甲" }, "geometry": { "type": "Point", "coordinates": [ 121.509947, 25.02373 ] } },
{ "type": "Feature", "properties": { "district": "萬華區", "name": "臺北市政府社會局委託社團法人新北市國際兒童教育協會經營管理臺北市青年托嬰中心", "address": "臺北市萬華區日祥里青年路188之1號", "Approvedcollect": 45, "RealCollect": 45, "grade": "優" }, "geometry": { "type": "Point", "coordinates": [ 121.5037166, 25.0201924 ] } },
{ "type": "Feature", "properties": { "district": "萬華區", "name": "臺北市政府社會局委託財團法人海棠文教基金會經營管理臺北市老松社區公共托育家園", "address": "臺北市萬華區桂林路64號1樓(老松國小南棟)", "Approvedcollect": 12, "RealCollect": 12, "grade": "優" }, "geometry": { "type": "Point", "coordinates": [ 121.5026351, 25.0374164 ] } },
{ "type": "Feature", "properties": { "district": "信義區", "name": "臺北市私立薇薇安娃娃國托嬰中心", "address": "臺北市信義區忠孝東路5段236巷3弄29號2樓及2樓之1", "Approvedcollect": 24, "RealCollect": 24, "grade": "乙" }, "geometry": { "type": "Point", "coordinates": [ 121.5437974, 25.0417427 ] } },
{ "type": "Feature", "properties": { "district": "信義區", "name": "臺北市私立薇薇安娃娃國信義園托嬰中心", "address": "臺北市信義區忠孝東路5段236巷37弄33號1樓", "Approvedcollect": 20, "RealCollect": 19, "grade": "乙" }, "geometry": { "type": "Point", "coordinates": [ 121.5437974, 25.0417427 ] } },
{ "type": "Feature", "properties": { "district": "信義區", "name": "臺北市私立信義小太陽托嬰中心", "address": "臺北市信義區中坡南路98巷2號1樓", "Approvedcollect": 20, "RealCollect": 20, "grade": "乙" }, "geometry": { "type": "Point", "coordinates": [ 121.5849326, 25.0410446 ] } },
{ "type": "Feature", "properties": { "district": "信義區", "name": "臺北市私立薇薇安娃娃國興雅園托嬰中心", "address": "臺北市信義區松德路180巷9號", "Approvedcollect": 24, "RealCollect": 23, "grade": "乙" }, "geometry": { "type": "Point", "coordinates": [ 121.5737818, 25.035266 ] } },
{ "type": "Feature", "properties": { "district": "信義區", "name": "臺北市私立薇薇安娃娃國松德園托嬰中心", "address": "臺北市信義區松德路180巷11號", "Approvedcollect": 28, "RealCollect": 27, "grade": "乙" }, "geometry": { "type": "Point", "coordinates": [ 121.5739767, 25.035497 ] } },
{ "type": "Feature", "properties": { "district": "信義區", "name": "臺北市私立柚子樹托嬰中心", "address": "臺北市信義區信義路6段36號1樓", "Approvedcollect": 20, "RealCollect": 20, "grade": "乙" }, "geometry": { "type": "Point", "coordinates": [ 121.575789, 25.034305 ] } },
{ "type": "Feature", "properties": { "district": "信義區", "name": "臺北市政府附設臺北市私立市政大樓員工子女社區公共托育家園", "address": "臺北市信義區市府路1號2樓(臺北市政府市政大樓南區)", "Approvedcollect": 12, "RealCollect": 12, "grade": "甲" }, "geometry": { "type": "Point", "coordinates": [ 121.5639969, 25.037531 ] } },
{ "type": "Feature", "properties": { "district": "信義區", "name": "臺北市政府社會局委託社團法人台北市幼兒園協會辦理臺北市信義托嬰中心", "address": "臺北市信義區基隆路2段99號1樓(三興國小和平樓)", "Approvedcollect": 40, "RealCollect": 40, "grade": "優" }, "geometry": { "type": "Point", "coordinates": [ 121.5720055, 25.0409201 ] } },
{ "type": "Feature", "properties": { "district": "信義區", "name": "臺北市政府社會局委託社團法人臺北市保母成長促進會經營管理臺北市吳興社區公共托育家園", "address": "臺北市信義區松仁路226號2樓(吳興國小信義樓)", "Approvedcollect": 12, "RealCollect": 12, "grade": "乙" }, "geometry": { "type": "Point", "coordinates": [ 121.5683186, 25.0255934 ] } },
{ "type": "Feature", "properties": { "district": "信義區", "name": "臺北市政府社會局委託臺北市托育發展協會經營管理臺北市興雅社區公共托育家園", "address": "臺北市信義區基隆路1段83巷9號2樓(興雅國小和平樓)", "Approvedcollect": 12, "RealCollect": 12, "grade": "優" }, "geometry": { "type": "Point", "coordinates": [ 121.5720055, 25.0409201 ] } },
{ "type": "Feature", "properties": { "district": "士林區", "name": "臺北市私立怡寶優質托嬰中心", "address": "臺北市士林區文林路740巷9弄24號1樓", "Approvedcollect": 22, "RealCollect": 22, "grade": "優" }, "geometry": { "type": "Point", "coordinates": [ 121.5207089, 25.1036127 ] } },
{ "type": "Feature", "properties": { "district": "士林區", "name": "臺北市私立怡寶托嬰中心", "address": "臺北市士林區中山北路5段852號1樓", "Approvedcollect": 24, "RealCollect": 24, "grade": "甲" }, "geometry": { "type": "Point", "coordinates": [ 121.5264781, 25.1020514 ] } },
{ "type": "Feature", "properties": { "district": "士林區", "name": "臺北市私立怡寶資優托嬰中心", "address": "臺北巿士林區文林路740巷9弄2號1樓", "Approvedcollect": 22, "RealCollect": 22, "grade": "優" }, "geometry": { "type": "Point", "coordinates": [ 121.5208082, 25.1035102 ] } },
{ "type": "Feature", "properties": { "district": "士林區", "name": "臺北市私立好來托嬰中心", "address": "臺北市士林區忠誠路2段166巷31號1樓至2樓", "Approvedcollect": 40, "RealCollect": 29, "grade": "乙" }, "geometry": { "type": "Point", "coordinates": [ 121.5321155, 25.1158406 ] } },
{ "type": "Feature", "properties": { "district": "士林區", "name": "臺北市私立春田托嬰中心", "address": "臺北市士林區磺溪街88巷6號1樓", "Approvedcollect": 22, "RealCollect": 18, "grade": "甲" }, "geometry": { "type": "Point", "coordinates": [ 121.5238115, 25.108343 ] } },
{ "type": "Feature", "properties": { "district": "士林區", "name": "臺北市私立萌語天母托嬰中心", "address": "臺北市士林區中山北路6段405巷70號1樓", "Approvedcollect": 31, "RealCollect": 30, "grade": "優" }, "geometry": { "type": "Point", "coordinates": [ 121.5264873, 25.1165608 ] } },
{ "type": "Feature", "properties": { "district": "士林區", "name": "臺北市私立春田天母托嬰中心", "address": "臺北市士林區忠誠路2段32巷9號1樓", "Approvedcollect": 34, "RealCollect": 30, "grade": "乙" }, "geometry": { "type": "Point", "coordinates": [ 121.529484, 25.109288 ] } },
{ "type": "Feature", "properties": { "district": "士林區", "name": "臺北市私立怡寶質優托嬰中心", "address": "臺北市士林區前港街88號1樓", "Approvedcollect": 23, "RealCollect": 21, "grade": "優" }, "geometry": { "type": "Point", "coordinates": [ 121.5195463, 25.0849283 ] } },
{ "type": "Feature", "properties": { "district": "士林區", "name": "臺北市私立長藤托嬰中心", "address": "臺北市士林區葫蘆街140號1樓", "Approvedcollect": 20, "RealCollect": 20, "grade": "甲" }, "geometry": { "type": "Point", "coordinates": [ 121.5085428, 25.0835474 ] } },
{ "type": "Feature", "properties": { "district": "士林區", "name": "臺北市私立維薆托嬰中心", "address": "臺北市士林區忠誠路2段70巷13弄1號1樓", "Approvedcollect": 25, "RealCollect": 24, "grade": "甲" }, "geometry": { "type": "Point", "coordinates": [ 121.5298509, 25.1113353 ] } },
{ "type": "Feature", "properties": { "district": "士林區", "name": "臺北市私立好來天母托嬰中心", "address": "臺北市士林區士東路244號1樓", "Approvedcollect": 27, "RealCollect": 24, "grade": "甲" }, "geometry": { "type": "Point", "coordinates": [ 121.5354636, 25.1128799 ] } },
{ "type": "Feature", "properties": { "district": "士林區", "name": "臺北市私立孩子國萌寶托嬰中心", "address": "臺北市士林區承德路4段187號1樓", "Approvedcollect": 33, "RealCollect": 31, "grade": "甲" }, "geometry": { "type": "Point", "coordinates": [ 121.5224015, 25.0879465 ] } },
{ "type": "Feature", "properties": { "district": "士林區", "name": "臺北市私立雨聲托嬰中心(社團法人新北市嬰幼兒托育協會辦理)", "address": "臺北市士林區雨聲街105號1樓(聯醫陽明院區宿舍大樓西側1樓)", "Approvedcollect": 30, "RealCollect": 29, "grade": "優" }, "geometry": { "type": "Point", "coordinates": [ 121.5317679, 25.1052354 ] } },
{ "type": "Feature", "properties": { "district": "士林區", "name": "臺北市私立幼天才托嬰中心", "address": "臺北市士林區華齡街180號及182號1樓", "Approvedcollect": 40, "RealCollect": 38, "grade": "優" }, "geometry": { "type": "Point", "coordinates": [ 121.5197325, 25.087252 ] } },
{ "type": "Feature", "properties": { "district": "士林區", "name": "臺北市私立怡寶士林官邸托嬰中心", "address": "臺北市士林區中山北路5段520號1樓", "Approvedcollect": 79, "RealCollect": 77, "grade": "甲" }, "geometry": { "type": "Point", "coordinates": [ 121.5282401, 25.093442 ] } },
{ "type": "Feature", "properties": { "district": "士林區", "name": "臺北市私立長藤幼苗托嬰中心", "address": "臺北市士林區中正路655巷6號及8號", "Approvedcollect": 23, "RealCollect": 23, "grade": "甲" }, "geometry": { "type": "Point", "coordinates": [ 121.5076574, 25.0853904 ] } },
{ "type": "Feature", "properties": { "district": "士林區", "name": "臺北市私立蘭瑛托嬰中心", "address": "臺北市士林區德行東路74巷22號1樓", "Approvedcollect": 30, "RealCollect": 29, "grade": "N" }, "geometry": { "type": "Point", "coordinates": [ 121.5272542, 25.1059464 ] } },
{ "type": "Feature", "properties": { "district": "士林區", "name": "臺北市私立蘇培兒托嬰中心", "address": "臺北市士林區社中街422號1樓及2樓", "Approvedcollect": 34, "RealCollect": 30, "grade": "N" }, "geometry": { "type": "Point", "coordinates": [ 121.5026031, 25.0919442 ] } },
{ "type": "Feature", "properties": { "district": "士林區", "name": "臺北市私立萌薆托嬰中心", "address": "臺北巿士林區士東路120巷22弄1號", "Approvedcollect": 24, "RealCollect": 24, "grade": "N" }, "geometry": { "type": "Point", "coordinates": [ 121.5295893, 25.1111226 ] } },
{ "type": "Feature", "properties": { "district": "士林區", "name": "臺北市私立小熊搖籃天母一館托嬰中心", "address": "臺北市士林區天母西路48號1、2樓", "Approvedcollect": 35, "RealCollect": 34, "grade": "N" }, "geometry": { "type": "Point", "coordinates": [ 121.5296396, 25.1191735 ] } },
{ "type": "Feature", "properties": { "district": "士林區", "name": "臺北市私立怡寶美好時光托嬰中心", "address": "臺北市士林區文林路740巷11號1樓", "Approvedcollect": 19, "RealCollect": 19, "grade": "N" }, "geometry": { "type": "Point", "coordinates": [ 121.5208676, 25.1034122 ] } },
{ "type": "Feature", "properties": { "district": "士林區", "name": "臺北市政府社會局委託財團法人靖娟兒童安全文教基金會辦理臺北市士林托嬰中心", "address": "臺北市士林區基河路130號1樓", "Approvedcollect": 45, "RealCollect": 45, "grade": "優" }, "geometry": { "type": "Point", "coordinates": [ 121.5226684, 25.0892037 ] } },
{ "type": "Feature", "properties": { "district": "士林區", "name": "臺北市政府社會局委託財團法人彭婉如文教基金會經營管理臺北市芝山社區公共托育家園", "address": "臺北市士林區德行東路285號3樓(芝山國小忠孝樓)", "Approvedcollect": 12, "RealCollect": 12, "grade": "甲" }, "geometry": { "type": "Point", "coordinates": [ 121.5366139, 25.1106601 ] } },
{ "type": "Feature", "properties": { "district": "士林區", "name": "臺北市政府社會局委託社團法人台灣公共托育協會經營管理臺北市葫蘆社區公共托育家園", "address": "臺北市士林區環河北路3段95號2樓(葫蘆國小光復樓)", "Approvedcollect": 12, "RealCollect": 12, "grade": "甲" }, "geometry": { "type": "Point", "coordinates": [ 121.5070288, 25.0837756 ] } },
{ "type": "Feature", "properties": { "district": "士林區", "name": "臺北市政府社會局委託新北市嬰幼兒托育發展促進會經營管理臺北市富安社區公共托育家園", "address": "臺北市士林區延平北路8段135號2樓(富安國小內)", "Approvedcollect": 12, "RealCollect": 12, "grade": "甲" }, "geometry": { "type": "Point", "coordinates": [ 121.482581, 25.105838 ] } },
{ "type": "Feature", "properties": { "district": "士林區", "name": "臺北市政府社會局委託台北市托嬰協會經營管理臺北市百齡社區公共托育家園", "address": "臺北市士林區福港街205號1樓(百齡國小內)", "Approvedcollect": 12, "RealCollect": 12, "grade": "甲" }, "geometry": { "type": "Point", "coordinates": [ 121.5185773, 25.0859766 ] } },
{ "type": "Feature", "properties": { "district": "士林區", "name": "臺北市政府社會局委託財團法人中華民國唐氏症基金會經營管理臺北市三玉社區公共托育家園", "address": "臺北市士林區天母東路116號2樓(三玉國小內)", "Approvedcollect": 12, "RealCollect": 12, "grade": "甲" }, "geometry": { "type": "Point", "coordinates": [ 121.5372679, 25.1178607 ] } },
{ "type": "Feature", "properties": { "district": "士林區", "name": "臺北市政府社會局委託新北市嬰幼兒托育發展促進會經營管理臺北市蘭雅社區公共托育家園", "address": "臺北市士林區磺溪街57號(蘭雅國小內)", "Approvedcollect": 12, "RealCollect": 12, "grade": "甲" }, "geometry": { "type": "Point", "coordinates": [ 121.5229496, 25.1083492 ] } },
{ "type": "Feature", "properties": { "district": "士林區", "name": "臺北市政府社會局委託社團法人台灣公共托育協會經營管理臺北市文昌社區公共托育家園", "address": "臺北市士林區文林路615巷20號1樓(文昌國小內)", "Approvedcollect": 12, "RealCollect": 12, "grade": "優" }, "geometry": { "type": "Point", "coordinates": [ 121.5213458, 25.0994218 ] } },
{ "type": "Feature", "properties": { "district": "士林區", "name": "臺北市政府社會局委託社團法人台灣公共托育協會經營管理臺北市士林社區公共托育家園", "address": "臺北市士林區大東路165號1樓(士林國小育才樓)", "Approvedcollect": 12, "RealCollect": 12, "grade": "甲" }, "geometry": { "type": "Point", "coordinates": [ 121.5249268, 25.0933199 ] } },
{ "type": "Feature", "properties": { "district": "北投區", "name": "臺北市私立芳馨園二館托嬰中心", "address": "臺北市北投區大興街23巷35號1樓", "Approvedcollect": 24, "RealCollect": 23, "grade": "甲" }, "geometry": { "type": "Point", "coordinates": [ 121.4974401, 25.1308458 ] } },
{ "type": "Feature", "properties": { "district": "北投區", "name": "臺北市私立安格托嬰中心", "address": "臺北市北投區石牌路2段90巷17號2樓", "Approvedcollect": 34, "RealCollect": 34, "grade": "乙" }, "geometry": { "type": "Point", "coordinates": [ 121.517149, 25.1172021 ] } },
{ "type": "Feature", "properties": { "district": "北投區", "name": "臺北市私立向暘托嬰中心", "address": "臺北市北投區石牌路2段352號1樓", "Approvedcollect": 34, "RealCollect": 34, "grade": "甲" }, "geometry": { "type": "Point", "coordinates": [ 121.5251577, 25.1230994 ] } },
{ "type": "Feature", "properties": { "district": "北投區", "name": "臺北市私立幼輝托嬰中心", "address": "臺北市北投區明德路118巷17號1樓", "Approvedcollect": 22, "RealCollect": 17, "grade": "甲" }, "geometry": { "type": "Point", "coordinates": [ 121.5209509, 25.1095185 ] } },
{ "type": "Feature", "properties": { "district": "北投區", "name": "臺北市私立可瑞荳托嬰中心", "address": "臺北市北投區大業路506之1號1樓", "Approvedcollect": 22, "RealCollect": 22, "grade": "優" }, "geometry": { "type": "Point", "coordinates": [ 121.496002, 25.13317 ] } },
{ "type": "Feature", "properties": { "district": "北投區", "name": "臺北市私立芳馨園托嬰中心", "address": "臺北市北投區中央北路2段227號1樓", "Approvedcollect": 20, "RealCollect": 19, "grade": "甲" }, "geometry": { "type": "Point", "coordinates": [ 121.491816, 25.1382209 ] } },
{ "type": "Feature", "properties": { "district": "北投區", "name": "臺北市私立貝兒托嬰中心", "address": "臺北市北投區吉利街158號1樓及2樓", "Approvedcollect": 38, "RealCollect": 35, "grade": "優" }, "geometry": { "type": "Point", "coordinates": [ 121.5087255, 25.118539 ] } },
{ "type": "Feature", "properties": { "district": "北投區", "name": "臺北市私立小腳ㄚ托嬰中心", "address": "臺北市北投區吉利街162號1樓", "Approvedcollect": 20, "RealCollect": 19, "grade": "甲" }, "geometry": { "type": "Point", "coordinates": [ 121.5087783, 25.1185957 ] } },
{ "type": "Feature", "properties": { "district": "北投區", "name": "臺北市私立小腳ㄚ大未來托嬰中心", "address": "臺北巿北投區吉利街207號", "Approvedcollect": 22, "RealCollect": 20, "grade": "甲" }, "geometry": { "type": "Point", "coordinates": [ 121.5090838, 25.1187963 ] } },
{ "type": "Feature", "properties": { "district": "北投區", "name": "臺北市私立樂葳兒托嬰中心", "address": "臺北市北投區文林北路112號1樓", "Approvedcollect": 49, "RealCollect": 30, "grade": "甲" }, "geometry": { "type": "Point", "coordinates": [ 121.517367, 25.105994 ] } },
{ "type": "Feature", "properties": { "district": "北投區", "name": "臺北市私立天華托嬰中心", "address": "臺北市北投區光明路167號2樓", "Approvedcollect": 63, "RealCollect": 49, "grade": "甲" }, "geometry": { "type": "Point", "coordinates": [ 121.5028571, 25.1356594 ] } },
{ "type": "Feature", "properties": { "district": "北投區", "name": "臺北市私立天華石牌托嬰中心", "address": "臺北巿北投區榮華三路25號2樓", "Approvedcollect": 39, "RealCollect": 25, "grade": "N" }, "geometry": { "type": "Point", "coordinates": [ 121.5212871, 25.1138393 ] } },
{ "type": "Feature", "properties": { "district": "北投區", "name": "臺北市政府社會局委託台北市教保人員協會經營管理臺北市北投托嬰中心", "address": "臺北市北投區光明路22號2樓", "Approvedcollect": 40, "RealCollect": 40, "grade": "優" }, "geometry": { "type": "Point", "coordinates": [ 121.4992082, 25.1325101 ] } },
{ "type": "Feature", "properties": { "district": "北投區", "name": "臺北市政府社會局委託馬偕醫護管理專科學校經營管理臺北市關渡托嬰中心", "address": "臺北市北投區知行路212號2樓(關渡國中內)", "Approvedcollect": 40, "RealCollect": 40, "grade": "甲" }, "geometry": { "type": "Point", "coordinates": [ 121.4671448, 25.1198847 ] } },
{ "type": "Feature", "properties": { "district": "北投區", "name": "臺北市政府社會局委託社團法人中華婦幼健康促進發展協會經營管理臺北市奇岩托嬰中心", "address": "臺北市北投區磺港路273號1樓", "Approvedcollect": 45, "RealCollect": 45, "grade": "N" }, "geometry": { "type": "Point", "coordinates": [ 121.5032205, 25.1230601 ] } },
{ "type": "Feature", "properties": { "district": "北投區", "name": "臺北市政府社會局委託財團法人彭婉如文教基金會經營管理臺北市北投社區公共托育家園", "address": "臺北市北投區中央北路1段73號2樓(北投國小白宮)", "Approvedcollect": 12, "RealCollect": 12, "grade": "甲" }, "geometry": { "type": "Point", "coordinates": [ 121.475307, 25.1328975 ] } },
{ "type": "Feature", "properties": { "district": "北投區", "name": "臺北市政府社會局委託財團法人彭婉如文教基金會經營管理臺北市桃源社區公共托育家園", "address": "臺北市北投區中央北路3段40巷45號1樓(桃源國小)", "Approvedcollect": 12, "RealCollect": 12, "grade": "優" }, "geometry": { "type": "Point", "coordinates": [ 121.4844614, 25.1397049 ] } },
{ "type": "Feature", "properties": { "district": "北投區", "name": "臺北市政府社會局委託臺北市嬰幼兒托育協會經營管理臺北市文北社區公共托育家園", "address": "臺北市北投區文林北路75巷61號1樓", "Approvedcollect": 12, "RealCollect": 12, "grade": "甲" }, "geometry": { "type": "Point", "coordinates": [ 121.5170268, 25.1032088 ] } },
{ "type": "Feature", "properties": { "district": "北投區", "name": "臺北市政府社會局委託臺北市嬰幼兒托育協會經營管理臺北市洲美社區公共托育家園", "address": "臺北市北投區福美路221號1樓", "Approvedcollect": 12, "RealCollect": 12, "grade": "優" }, "geometry": { "type": "Point", "coordinates": [ 121.504091, 25.1002536 ] } },
{ "type": "Feature", "properties": { "district": "北投區", "name": "臺北市政府社會局委託臺北市嬰幼兒托育協會經營管理臺北市稻香社區公共托育家園", "address": "臺北市北投區稻香路83號", "Approvedcollect": 12, "RealCollect": 12, "grade": "N" }, "geometry": { "type": "Point", "coordinates": [ 121.4896201, 25.140967 ] } },
{ "type": "Feature", "properties": { "district": "內湖區", "name": "臺北市私立快樂托嬰中心", "address": "臺北市內湖區民權東路6段282號2樓", "Approvedcollect": 30, "RealCollect": 30, "grade": "乙" }, "geometry": { "type": "Point", "coordinates": [ 121.6051666, 25.0722195 ] } },
{ "type": "Feature", "properties": { "district": "內湖區", "name": "臺北市私立小小百合蒙特梭利托嬰中心", "address": "臺北市內湖區星雲街36號1樓及夾層樓", "Approvedcollect": 20, "RealCollect": 20, "grade": "甲" }, "geometry": { "type": "Point", "coordinates": [ 121.5914195, 25.0783935 ] } },
{ "type": "Feature", "properties": { "district": "內湖區", "name": "臺北市私立嘉霙托嬰中心", "address": "臺北市內湖區陽光街150號1樓", "Approvedcollect": 25, "RealCollect": 25, "grade": "甲" }, "geometry": { "type": "Point", "coordinates": [ 121.5827679, 25.0751135 ] } },
{ "type": "Feature", "properties": { "district": "內湖區", "name": "臺北市私立斑比諾托嬰中心", "address": "臺北市內湖區民權東路6段190號1樓", "Approvedcollect": 58, "RealCollect": 57, "grade": "甲" }, "geometry": { "type": "Point", "coordinates": [ 121.5942867, 25.0686459 ] } },
{ "type": "Feature", "properties": { "district": "內湖區", "name": "臺北市私立愛德芬托嬰中心", "address": "臺北市內湖區民權東路6段296巷48之3號1樓", "Approvedcollect": 18, "RealCollect": 15, "grade": "乙" }, "geometry": { "type": "Point", "coordinates": [ 121.6077361, 25.0711875 ] } },
{ "type": "Feature", "properties": { "district": "內湖區", "name": "臺北市私立維多爾托嬰中心", "address": "臺北市內湖區民權東路6段296巷41號及41-1號1樓", "Approvedcollect": 40, "RealCollect": 40, "grade": "甲" }, "geometry": { "type": "Point", "coordinates": [ 121.6066715, 25.071669 ] } },
{ "type": "Feature", "properties": { "district": "內湖區", "name": "臺北市私立愛寶貝內湖園托嬰中心", "address": "臺北市內湖區內湖路2段271號及273號1-2樓", "Approvedcollect": 40, "RealCollect": 36, "grade": "甲" }, "geometry": { "type": "Point", "coordinates": [ 121.590438, 25.082217 ] } },
{ "type": "Feature", "properties": { "district": "內湖區", "name": "臺北市私立艾兒嘉托嬰中心", "address": "臺北市內湖區民權東路6段296巷66之2號1樓", "Approvedcollect": 33, "RealCollect": 33, "grade": "甲" }, "geometry": { "type": "Point", "coordinates": [ 121.6085978, 25.0705353 ] } },
{ "type": "Feature", "properties": { "district": "內湖區", "name": "臺北市私立永寶兒托嬰中心", "address": "臺北市內湖區民權東路6段180巷6號2樓", "Approvedcollect": 160, "RealCollect": 35, "grade": "乙" }, "geometry": { "type": "Point", "coordinates": [ 121.5928053, 25.0688364 ] } },
{ "type": "Feature", "properties": { "district": "內湖區", "name": "臺北市私立一貳三托嬰中心", "address": "臺北市內湖區金莊路26號1樓", "Approvedcollect": 33, "RealCollect": 33, "grade": "甲" }, "geometry": { "type": "Point", "coordinates": [ 121.5877747, 25.062078 ] } },
{ "type": "Feature", "properties": { "district": "內湖區", "name": "臺北市私立青穗國際托嬰中心", "address": "臺北市內湖區東湖路113巷5弄16號1、2樓", "Approvedcollect": 40, "RealCollect": 38, "grade": "乙" }, "geometry": { "type": "Point", "coordinates": [ 121.614522, 25.069083 ] } },
{ "type": "Feature", "properties": { "district": "內湖區", "name": "臺北市私立藝蘭托嬰中心", "address": "臺北市內湖區港墘路84號2樓", "Approvedcollect": 29, "RealCollect": 28, "grade": "乙" }, "geometry": { "type": "Point", "coordinates": [ 121.577583, 25.0807169 ] } },
{ "type": "Feature", "properties": { "district": "內湖區", "name": "臺北市私立愛力寶寶托嬰中心", "address": "臺北市內湖區內湖路2段336巷1號及3號1樓", "Approvedcollect": 38, "RealCollect": 24, "grade": "N" }, "geometry": { "type": "Point", "coordinates": [ 121.5891283, 25.0814834 ] } },
{ "type": "Feature", "properties": { "district": "內湖區", "name": "臺北市私立怡寶內湖科技之星托嬰中心", "address": "臺北市內湖區瑞光路337號2樓", "Approvedcollect": 69, "RealCollect": 57, "grade": "N" }, "geometry": { "type": "Point", "coordinates": [ 121.5756048, 25.077801 ] } },
{ "type": "Feature", "properties": { "district": "內湖區", "name": "臺北市私立凱菲林托嬰中心", "address": "臺北市內湖區康寧路3段54之7號2樓", "Approvedcollect": 23, "RealCollect": 11, "grade": "N" }, "geometry": { "type": "Point", "coordinates": [ 121.6097634, 25.0712919 ] } },
{ "type": "Feature", "properties": { "district": "內湖區", "name": "臺北市私立探險家托嬰中心", "address": "臺北市內湖區康樂街116號2樓、116之1號2樓、116之2號2樓", "Approvedcollect": 46, "RealCollect": 5, "grade": "N" }, "geometry": { "type": "Point", "coordinates": [ 121.6189808, 25.0710633 ] } },
{ "type": "Feature", "properties": { "district": "內湖區", "name": "臺北市政府社會局委託財團法人中華民國唐氏症基金會經營管理臺北市內湖托嬰中心", "address": "臺北市內湖區內湖路1段659號2樓", "Approvedcollect": 45, "RealCollect": 45, "grade": "優" }, "geometry": { "type": "Point", "coordinates": [ 121.5909027, 25.0689422 ] } },
{ "type": "Feature", "properties": { "district": "內湖區", "name": "臺北市政府社會局委託社團法人台北市幼兒園協會辦理臺北市大湖托嬰中心", "address": "臺北市內湖區大湖山莊街170號1樓(大湖國小溫馨樓)", "Approvedcollect": 40, "RealCollect": 40, "grade": "優" }, "geometry": { "type": "Point", "coordinates": [ 121.5909027, 25.0689422 ] } },
{ "type": "Feature", "properties": { "district": "內湖區", "name": "臺北市政府社會局委託社團法人臺北市飛亞特全人福利服務文教發展協會經營管理臺北市西湖托嬰中心", "address": "臺北市內湖區環山路1段25號2樓(西湖國小忠孝樓)", "Approvedcollect": 40, "RealCollect": 40, "grade": "優" }, "geometry": { "type": "Point", "coordinates": [ 121.5656678, 25.0826777 ] } },
{ "type": "Feature", "properties": { "district": "內湖區", "name": "臺北市政府社會局委託社團法人中華兆陽文教發展協會經營管理臺北市潭美托嬰中心", "address": "臺北市內湖區新明路22號", "Approvedcollect": 45, "RealCollect": 45, "grade": "N" }, "geometry": { "type": "Point", "coordinates": [ 121.5897084, 25.0607443 ] } },
{ "type": "Feature", "properties": { "district": "內湖區", "name": "臺北市政府社會局委託社團法人臺北市幼托協會經營管理臺北市新湖社區公共托育家園", "address": "臺北市內湖區民權東路6段138號1樓(新湖國小內)", "Approvedcollect": 12, "RealCollect": 12, "grade": "甲" }, "geometry": { "type": "Point", "coordinates": [ 121.5884679, 25.0682888 ] } },
{ "type": "Feature", "properties": { "district": "內湖區", "name": "臺北市政府社會局委託社團法人中華婦幼健康促進發展協會經營管理臺北市星雲社區公共托育家園", "address": "臺北市內湖區星雲街161巷3號1樓", "Approvedcollect": 12, "RealCollect": 12, "grade": "優" }, "geometry": { "type": "Point", "coordinates": [ 121.596101, 25.0811491 ] } },
{ "type": "Feature", "properties": { "district": "內湖區", "name": "臺北市政府社會局委託社團法人中華婦幼健康促進發展協會經營管理臺北市麗山社區公共托育家園", "address": "臺北市內湖區港華街100號1樓(麗山國小四維二大樓)", "Approvedcollect": 12, "RealCollect": 12, "grade": "優" }, "geometry": { "type": "Point", "coordinates": [ 121.5719866, 25.0823403 ] } },
{ "type": "Feature", "properties": { "district": "內湖區", "name": "臺北市政府社會局委託社團法人臺北市飛亞特全人福利服務文教發展協會經營管理臺北市文湖社區公共托育家園", "address": "臺北市內湖區文湖街15號2樓(文湖國小內)", "Approvedcollect": 12, "RealCollect": 12, "grade": "優" }, "geometry": { "type": "Point", "coordinates": [ 121.5599854, 25.0863225 ] } },
{ "type": "Feature", "properties": { "district": "內湖區", "name": "臺北市政府社會局委託社團法人中華婦幼健康促進發展協會經營管理臺北市潭美社區公共托育家園", "address": "臺北市內湖區行善路179號3樓(潭美國小行政樓)", "Approvedcollect": 12, "RealCollect": 12, "grade": "優" }, "geometry": { "type": "Point", "coordinates": [ 121.5815887, 25.0592365 ] } },
{ "type": "Feature", "properties": { "district": "內湖區", "name": "臺北市政府社會局委託社團法人中華婦幼健康促進發展協會經營管理臺北市瑞光社區公共托育家園", "address": "臺北市內湖區瑞光路162號2樓", "Approvedcollect": 12, "RealCollect": 12, "grade": "甲" }, "geometry": { "type": "Point", "coordinates": [ 121.5790549, 25.0734935 ] } },
{ "type": "Feature", "properties": { "district": "南港區", "name": "臺北市私立小狀元托嬰中心(原名稱:小斑馬托嬰中心；我們的南港托嬰中心)", "address": "臺北市南港區市民大道8段369號2樓之1", "Approvedcollect": 25, "RealCollect": 8, "grade": "乙" }, "geometry": { "type": "Point", "coordinates": [ 121.6081769, 25.0536377 ] } },
{ "type": "Feature", "properties": { "district": "南港區", "name": "臺北市私立愛寶貝南港園托嬰中心", "address": "臺北市南港區研究院路1段49號及51號1樓", "Approvedcollect": 40, "RealCollect": 40, "grade": "甲" }, "geometry": { "type": "Point", "coordinates": [ 121.616026, 25.0486776 ] } },
{ "type": "Feature", "properties": { "district": "南港區", "name": "臺北市私立荳寶托嬰中心", "address": "臺北市南港區興南街50號及52巷1號1樓", "Approvedcollect": 35, "RealCollect": 28, "grade": "甲" }, "geometry": { "type": "Point", "coordinates": [ 121.6035826, 25.0568846 ] } },
{ "type": "Feature", "properties": { "district": "南港區", "name": "臺北市私立中研斑比亞托嬰中心(社團法人臺北市兒童暨少年全方位發展協會辦理)", "address": "臺北市南港區研究院路2段61巷9號1樓", "Approvedcollect": 40, "RealCollect": 35, "grade": "N" }, "geometry": { "type": "Point", "coordinates": [ 121.6169875, 25.0443786 ] } },
{ "type": "Feature", "properties": { "district": "南港區", "name": "臺北市私立愛寶貝南軟園托嬰中心", "address": "臺北市南港區南港路1段2巷27號", "Approvedcollect": 32, "RealCollect": 32, "grade": "N" }, "geometry": { "type": "Point", "coordinates": [ 121.613465, 25.056454 ] } },
{ "type": "Feature", "properties": { "district": "南港區", "name": "臺北市政府社會局委託社團法人新北市國際兒童教育協會辦理臺北市南港托嬰中心", "address": "臺北市南港區東新街65號2樓(成德國小四維樓)", "Approvedcollect": 40, "RealCollect": 40, "grade": "優" }, "geometry": { "type": "Point", "coordinates": [ 121.5868725, 25.0470902 ] } },
{ "type": "Feature", "properties": { "district": "南港區", "name": "臺北市政府社會局委託社團法人新北市中華國際嬰幼兒發展學會經營管理臺北市舊莊社區公共托育家園", "address": "臺北市南港區舊莊街1段100號1樓(舊莊國小忠孝樓)", "Approvedcollect": 12, "RealCollect": 12, "grade": "甲" }, "geometry": { "type": "Point", "coordinates": [ 121.617798, 25.0427148 ] } },
{ "type": "Feature", "properties": { "district": "南港區", "name": "臺北市政府社會局委託社團法人中華婦幼健康促進發展協會經營管理臺北市玉成社區公共托育家園", "address": "臺北市南港區向陽路31號1樓(玉成國小和平樓)", "Approvedcollect": 12, "RealCollect": 12, "grade": "優" }, "geometry": { "type": "Point", "coordinates": [ 121.5945708, 25.0536151 ] } },
{ "type": "Feature", "properties": { "district": "南港區", "name": "臺北市政府社會局委託社團法人中華兆陽文教發展協會經營管理臺北市東明托嬰中心", "address": "臺北市南港區南港路2段60巷17號", "Approvedcollect": 40, "RealCollect": 40, "grade": "優" }, "geometry": { "type": "Point", "coordinates": [ 121.6046348, 25.0544058 ] } },
{ "type": "Feature", "properties": { "district": "南港區", "name": "臺北市政府社會局委託社團法人中華兆陽文教發展協會經營管理臺北市小彎社區公共托育家園", "address": "臺北市南港區向陽路250號1樓", "Approvedcollect": 12, "RealCollect": 12, "grade": "N" }, "geometry": { "type": "Point", "coordinates": [ 121.5935717, 25.0580728 ] } },
{ "type": "Feature", "properties": { "district": "文山區", "name": "臺北市私立育德興隆托嬰中心", "address": "臺北市文山區興隆路2段61巷6號2樓", "Approvedcollect": 50, "RealCollect": 50, "grade": "甲" }, "geometry": { "type": "Point", "coordinates": [ 121.5457453, 24.9991862 ] } },
{ "type": "Feature", "properties": { "district": "文山區", "name": "臺北市私立芳馨園木柵托嬰中心", "address": "臺北市文山區久康街24巷36號1樓及38號1樓", "Approvedcollect": 32, "RealCollect": 31, "grade": "甲" }, "geometry": { "type": "Point", "coordinates": [ 121.566365, 24.989228 ] } },
{ "type": "Feature", "properties": { "district": "文山區", "name": "臺北市私立幸福家托嬰中心(原名稱:臺北市私立恩予文山托嬰中心)", "address": "臺北市文山區新光路1段31巷1號1樓", "Approvedcollect": 24, "RealCollect": 22, "grade": "乙" }, "geometry": { "type": "Point", "coordinates": [ 121.5601762, 24.9887396 ] } },
{ "type": "Feature", "properties": { "district": "文山區", "name": "臺北市私立馥葆托嬰中心", "address": "臺北市文山區木新路2段161巷24弄2號1至2樓", "Approvedcollect": 28, "RealCollect": 26, "grade": "乙" }, "geometry": { "type": "Point", "coordinates": [ 121.5692226, 24.9826343 ] } },
{ "type": "Feature", "properties": { "district": "文山區", "name": "臺北市私立愛兒福托嬰中心", "address": "臺北市文山區辛亥路4段252巷8號及8之1號1樓", "Approvedcollect": 19, "RealCollect": 19, "grade": "甲" }, "geometry": { "type": "Point", "coordinates": [ 121.5539807, 25.0018419 ] } },
{ "type": "Feature", "properties": { "district": "文山區", "name": "臺北市私立樂娃兒托嬰中心", "address": "臺北市文山區羅斯福路6段159巷1弄18號\n", "Approvedcollect": 40, "RealCollect": 40, "grade": "甲" }, "geometry": { "type": "Point", "coordinates": [ 121.5409975, 24.9981275 ] } },
{ "type": "Feature", "properties": { "district": "文山區", "name": "臺北市私立陽光夥伴托嬰中心", "address": "臺北市文山區保儀路62之3號1樓及夾層", "Approvedcollect": 28, "RealCollect": 28, "grade": "乙" }, "geometry": { "type": "Point", "coordinates": [ 121.5685168, 24.9875994 ] } },
{ "type": "Feature", "properties": { "district": "文山區", "name": "臺北市私立樂萌兒托嬰中心", "address": "臺北市文山區木新路2段11號1樓及2樓", "Approvedcollect": 48, "RealCollect": 45, "grade": "甲" }, "geometry": { "type": "Point", "coordinates": [ 121.5708358, 24.9873913 ] } },
{ "type": "Feature", "properties": { "district": "文山區", "name": "臺北市私立滬江高級中學附設員工子女托嬰中心", "address": "臺北市文山區羅斯福路6段336號", "Approvedcollect": 40, "RealCollect": 28, "grade": "甲" }, "geometry": { "type": "Point", "coordinates": [ 121.5388848, 24.9895191 ] } },
{ "type": "Feature", "properties": { "district": "文山區", "name": "臺北市私立艾貝兒托嬰中心", "address": "臺北市文山區汀州路4段199號1樓", "Approvedcollect": 40, "RealCollect": 37, "grade": "N" }, "geometry": { "type": "Point", "coordinates": [ 121.5356276, 25.0031866 ] } },
{ "type": "Feature", "properties": { "district": "文山區", "name": "臺北市私立嘉樂托嬰中心", "address": "臺北市文山區辛亥路7段3之1號", "Approvedcollect": 26, "RealCollect": 25, "grade": "N" }, "geometry": { "type": "Point", "coordinates": [ 121.5526057, 24.9873184 ] } },
{ "type": "Feature", "properties": { "district": "文山區", "name": "臺北市私立貝格爾樂佩托嬰中心", "address": "臺北市文山區一壽街58號1樓", "Approvedcollect": 30, "RealCollect": 25, "grade": "N" }, "geometry": { "type": "Point", "coordinates": [ 121.5559587, 24.9790575 ] } },
{ "type": "Feature", "properties": { "district": "文山區", "name": "臺北市政府社會局委託社團法人台北市兒童托育協會經營管理臺北市文山托嬰中心", "address": "臺北市文山區木柵路1段177號2樓", "Approvedcollect": 40, "RealCollect": 40, "grade": "優" }, "geometry": { "type": "Point", "coordinates": [ 121.5711331, 24.99168 ] } },
{ "type": "Feature", "properties": { "district": "文山區", "name": "臺北市政府社會局委託中華民國蒙特梭利教師協會辦理臺北市景美托嬰中心", "address": "臺北市文山區羅斯福路6段455巷20、22、26、28號1至2樓及景文街106之1號2樓", "Approvedcollect": 45, "RealCollect": 45, "grade": "優" }, "geometry": { "type": "Point", "coordinates": [ 121.5408695, 24.9900888 ] } },
{ "type": "Feature", "properties": { "district": "文山區", "name": "臺北市政府社會局委託耕莘健康管理專科學校經營管理臺北市興隆托嬰中心", "address": "臺北市文山區興隆路4段105巷49號", "Approvedcollect": 40, "RealCollect": 40, "grade": "甲" }, "geometry": { "type": "Point", "coordinates": [ 121.5631973, 24.9881785 ] } },
{ "type": "Feature", "properties": { "district": "文山區", "name": "臺北市政府社會局委託中華民國蒙特梭利學會經營管理臺北市興華社區公共托育家園", "address": "臺北市文山區興隆路3段125巷6號2樓(興華國小科學樓)", "Approvedcollect": 12, "RealCollect": 12, "grade": "甲" }, "geometry": { "type": "Point", "coordinates": [ 121.5592502, 24.9995861 ] } },
{ "type": "Feature", "properties": { "district": "文山區", "name": "臺北市政府社會局委託社團法人新北市大愛關懷協會經營管理臺北市萬隆社區公共托育家園", "address": "臺北市文山區汀州路4段207號1樓", "Approvedcollect": 12, "RealCollect": 12, "grade": "甲" }, "geometry": { "type": "Point", "coordinates": [ 121.5356113, 25.003129 ] } },
{ "type": "Feature", "properties": { "district": "文山區", "name": "臺北市政府社會局委託社團法人台灣真善美幼兒教育協會經營管理臺北市武功社區公共托育家園", "address": "臺北市文山區興隆路1段68號(武功國小內)", "Approvedcollect": 12, "RealCollect": 12, "grade": "甲" }, "geometry": { "type": "Point", "coordinates": [ 121.5403992, 25.0039259 ] } },
{ "type": "Feature", "properties": { "district": "文山區", "name": "臺北市政府社會局委託耕莘健康管理專科學校經營管理臺北市忠順社區公共托育家園", "address": "臺北市文山區興隆路4段109巷30弄6號(老人自費安養中心內)", "Approvedcollect": 12, "RealCollect": 12, "grade": "優" }, "geometry": { "type": "Point", "coordinates": [ 121.5624746, 24.9864769 ] } },
{ "type": "Feature", "properties": { "district": "文山區", "name": "臺北市政府社會局委託社團法人台灣真善美幼兒教育協會經營管理臺北市萬芳社區公共托育家園", "address": "臺北市文山區萬和街1號1樓(萬芳國小內)", "Approvedcollect": 12, "RealCollect": 12, "grade": "甲" }, "geometry": { "type": "Point", "coordinates": [ 121.5672899, 25.0007508 ] } },
{ "type": "Feature", "properties": { "district": "文山區", "name": "臺北市政府社會局委託社團法人新北市大愛關懷協會經營管理臺北市興隆社區公共托育家園", "address": "臺北市文山區福興路2號1樓(興隆國小蒼松樓1樓)", "Approvedcollect": 12, "RealCollect": 12, "grade": "甲" }, "geometry": { "type": "Point", "coordinates": [ 121.5601762, 24.9887396 ] } },
{ "type": "Feature", "properties": { "district": "文山區", "name": "臺北市政府社會局委託社團法人新北市大愛關懷協會經營管理臺北市萬福社區公共托育家園", "address": "臺北市文山區羅斯福路5段170巷32號1樓(萬福國小蒼松樓)", "Approvedcollect": 12, "RealCollect": 12, "grade": "甲" }, "geometry": { "type": "Point", "coordinates": [ 121.5601762, 24.9887396 ] } },
{ "type": "Feature", "properties": { "district": "文山區", "name": "臺北市政府社會局委託台北市教保人員協會經營管理臺北市永建社區公共托育家園", "address": "臺北市文山區木柵路1段311巷1號1樓(永建國小內)", "Approvedcollect": 12, "RealCollect": 12, "grade": "甲" }, "geometry": { "type": "Point", "coordinates": [ 121.554541, 24.988241 ] } },
{ "type": "Feature", "properties": { "district": "文山區", "name": "臺北市政府社會局委託社團法人新北市大愛關懷協會經營管理臺北市辛亥社區公共托育家園", "address": "臺北市文山區辛亥路4段103號2樓(辛亥國小南棟)", "Approvedcollect": 12, "RealCollect": 12, "grade": "甲" }, "geometry": { "type": "Point", "coordinates": [ 121.5592414, 25.0062244 ] } },
{ "type": "Feature", "properties": { "district": "文山區", "name": "臺北市政府社會局委託中華民國蒙特梭利教師協會經營管理臺北市溪口社區公共托育家園", "address": "臺北市文山區景福街225號1樓(溪口國小敬業樓)", "Approvedcollect": 12, "RealCollect": 12, "grade": "甲" }, "geometry": { "type": "Point", "coordinates": [ 121.5390753, 24.994284 ] } }
]
}
